name,category,latitude,longitude,phone
Dharavi Community Care,General Support,19.0380,72.8538,+91 99887 76655
Mumbai Drug Awareness,Substance Abuse,19.0400,72.8550,+91 91234 56789
Bangalore Safety Hub,General Support,12.9716,77.5946,+919740259942
Indiranagar Outreach,Drug & Violence,12.9719,77.6412,+91 90000 11111
Goa Safe Coast,Maritime & Local Support,15.2993,73.9814,+91 92222 33333
North Goa Action Group,Substance Abuse,15.5442,73.7542,+91 95555 44444
